{"id":"221H","name":"Chennai Central - Thiruporur Bus Stand","stops":[{"name":"Chennai Central","distance":null,"time":0,"isSource":true,"latitude":13.0827,"longitude":80.2707},{"name":"Pallavan Salai (Bus Depot)","distance":null,"time":2,"latitude":13.075658823529412,"longitude":80.26906470588236},{"name":"Wellington Plaza","distance":null,"time":7,"latitude":13.068617647058824,"longitude":80.26742941176471},{"name":"L.I.C.","distance":null,"time":9,"latitude":13.061576470588236,"longitude":80.26579411764706},{"name":"T.V.S.","distance":null,"time":11,"latitude":13.054535294117647,"longitude":80.26415882352941},{"name":"Anand Theatre","distance":null,"time":12,"latitude":13.047494117647059,"longitude":80.26252352941177},{"name":"Church Park School","distance":null,"time":14,"latitude":13.040452941176472,"longitude":80.26088823529412},{"name":"D.M.S.","distance":null,"time":17,"latitude":13.033411764705884,"longitude":80.25925294117647},{"name":"Vanavil (Anna Arivalayam)","distance":null,"time":20,"latitude":13.026370588235295,"longitude":80.25761764705882},{"name":"S.I.E.T. College","distance":null,"time":21,"latitude":13.019329411764707,"longitude":80.25598235294117},{"name":"Defence Quarters","distance":null,"time":24,"latitude":13.012288235294118,"longitude":80.25434705882353},{"name":"Y.M.C.A. Nandanam (Nandanam)","distance":null,"time":26,"latitude":13.00524705882353,"longitude":80.25271176470588},{"name":"Saidapet (Teachers Training College)","distance":null,"time":31,"latitude":12.998205882352941,"longitude":80.25107647058823},{"name":"Saidapet","distance":null,"time":32,"latitude":12.991164705882353,"longitude":80.2494411764706},{"name":"Saidapet Court / Taluka Office Road","distance":null,"time":35,"latitude":12.984123529411765,"longitude":80.24780588235295},{"name":"Chinna Malai","distance":null,"time":36,"latitude":12.977082352941176,"longitude":80.2461705882353},{"name":"Anna University","distance":null,"time":38,"latitude":12.97004117647059,"longitude":80.24453529411765},{"name":"C.L.R.I.","distance":null,"time":41,"latitude":12.963000000000001,"longitude":80.2429},{"name":"Madhya Kailash","distance":null,"time":43,"latitude":12.955958823529413,"longitude":80.24126470588236},{"name":"W.P.T.","distance":null,"time":47,"latitude":12.948917647058824,"longitude":80.23962941176471},{"name":"Tidel Park","distance":null,"time":50,"latitude":12.941876470588236,"longitude":80.23799411764706},{"name":"S.R.P. Tool","distance":null,"time":55,"latitude":12.934835294117647,"longitude":80.23635882352941},{"name":"I.G.P.","distance":null,"time":57,"latitude":12.927794117647059,"longitude":80.23472352941177},{"name":"Kandanchavadi","distance":null,"time":60,"latitude":12.92075294117647,"longitude":80.23308823529412},{"name":"Perungudi","distance":null,"time":63,"latitude":12.913711764705882,"longitude":80.23145294117647},{"name":"Seevaram","distance":null,"time":66,"latitude":12.906670588235293,"longitude":80.22981764705882},{"name":"Jain College","distance":null,"time":68,"latitude":12.899629411764707,"longitude":80.22818235294118},{"name":"Rattha Tech Tower","distance":null,"time":70,"latitude":12.892588235294118,"longitude":80.22654705882353},{"name":"Okkiyampet","distance":null,"time":77,"latitude":12.88554705882353,"longitude":80.22491176470588},{"name":"T.C.S.","distance":null,"time":80,"latitude":12.878505882352941,"longitude":80.22327647058823},{"name":"Karapakkam","distance":null,"time":82,"latitude":12.871464705882353,"longitude":80.22164117647058},{"name":"Accenture","distance":null,"time":85,"latitude":12.864423529411765,"longitude":80.22000588235294},{"name":"Sholinganallur","distance":null,"time":88,"latitude":12.857382352941176,"longitude":80.21837058823529},{"name":"Satyabhama Dental College and Hospital","distance":null,"time":98,"latitude":12.850341176470588,"longitude":80.21673529411764},{"name":"Semmancheri","distance":null,"time":103,"latitude":12.8433,"longitude":80.21509999999999},{"name":"Navallur","distance":null,"time":109,"latitude":12.83625882352941,"longitude":80.21346470588234},{"name":"Siruseri (Muttukadu)","distance":null,"time":114,"latitude":12.829217647058824,"longitude":80.2118294117647},{"name":"S.I.P.C.O.T. (Muttukadu)","distance":null,"time":115,"latitude":12.822176470588236,"longitude":80.21019411764705},{"name":"Vaniyanchavadi Padma Adarsh School","distance":null,"time":117,"latitude":12.815135294117647,"longitude":80.2085588235294},{"name":"Kazhipattur","distance":null,"time":120,"latitude":12.808094117647059,"longitude":80.20692352941177},{"name":"Hindustan College","distance":null,"time":127,"latitude":12.80105294117647,"longitude":80.20528823529412},{"name":"Chettinad Hospital","distance":null,"time":129,"latitude":12.794011764705882,"longitude":80.20365294117647},{"name":"Padur","distance":null,"time":130,"latitude":12.786970588235294,"longitude":80.20201764705882},{"name":"Vandalur Road Junction","distance":null,"time":132,"latitude":12.779929411764705,"longitude":80.20038235294118},{"name":"Kelambakkam","distance":null,"time":133,"latitude":12.772888235294117,"longitude":80.19874705882353},{"name":"Thaiyur","distance":null,"time":140,"latitude":12.765847058823528,"longitude":80.19711176470588},{"name":"Koman Nagar","distance":null,"time":146,"latitude":12.758805882352942,"longitude":80.19547647058823},{"name":"S.S.N. College","distance":null,"time":148,"latitude":12.751764705882353,"longitude":80.19384117647058},{"name":"Kalavakkam","distance":null,"time":153,"latitude":12.744723529411765,"longitude":80.19220588235294},{"name":"Thiruporur","distance":null,"time":156,"latitude":12.737682352941176,"longitude":80.19057058823529},{"name":"Thiruporur Kovil","distance":null,"time":159,"latitude":12.730641176470588,"longitude":80.18893529411764},{"name":"Thiruporur Bus Stand","distance":null,"time":162,"isDestination":true,"latitude":12.7236,"longitude":80.1873}]}